{"type":"FeatureCollection", "features": [
{"type":"Feature","geometry":{"type":"Point","coordinates":[-96.991396,32.9429024]},"properties":{"CATEGORY":"Tourism","NAME":"Tower:KMPX-TV (Decatur)"}},
{"type":"Feature","geometry":{"type":"Point","coordinates":[-96.9905626,32.944569]},"properties":{"CATEGORY":"Tourism","NAME":"Tower:KLIF-AM (Dallas)"}},
{"type":"Feature","geometry":{"type":"Point","coordinates":[-96.9522269,32.6651334]},"properties":{"CATEGORY":"Tourism","NAME":"Museum:International Museum of Cultures"}},
{"type":"Feature","geometry":{"type":"Point","coordinates":[-96.9324411,32.7146307]},"properties":{"CATEGORY":"Tourism","NAME":"View point"}},
{"type":"Feature","geometry":{"type":"Point","coordinates":[-96.926116,32.8934593]},"properties":{"CATEGORY":"Tourism","NAME":"Tower:KVIL-AM (Highland Park)"}},
{"type":"Feature","geometry":{"type":"Point","coordinates":[-96.8902816,32.7454086]},"properties":{"CATEGORY":"Tourism","NAME":"Peak:Chalk Hill"}},
{"type":"Feature","geometry":{"type":"Point","coordinates":[-96.8502804,32.8437384]},"properties":{"CATEGORY":"Tourism","NAME":"Museum:Frontiers of Flight Museum"}},
{"type":"Feature","geometry":{"type":"Point","coordinates":[-96.8083349,32.7845735]},"properties":{"CATEGORY":"Tourism","NAME":"Museum:American Museum of the Miniature Arts"}},
{"type":"Feature","geometry":{"type":"Point","coordinates":[-96.8077793,32.7798515]},"properties":{"CATEGORY":"Tourism","NAME":"Museum:The Sixth Floor Museum"}},
{"type":"Feature","geometry":{"type":"Point","coordinates":[-96.8068398,32.7811467]},"properties":{"CATEGORY":"Tourism","NAME":"Museum:Dallas Holocaust Museum"}},
{"type":"Feature","geometry":{"type":"Point","coordinates":[-96.8011121,32.8901256]},"properties":{"CATEGORY":"Tourism","NAME":"Tower:KRSM-FM (Dallas)"}},
{"type":"Feature","geometry":{"type":"Point","coordinates":[-96.8009204,32.7875475]},"properties":{"CATEGORY":"Tourism","NAME":"Museum:Dallas Museum of Art"}},
{"type":"Feature","geometry":{"type":"Point","coordinates":[-96.8001308,32.7882186]},"properties":{"CATEGORY":"Tourism","NAME":"Museum:Nasher Sculpture Center"}},
{"type":"Feature","geometry":{"type":"Point","coordinates":[-96.79959,32.7879155]},"properties":{"CATEGORY":"Tourism","NAME":"Museum:Crow Collection of Asian Art"}},
{"type":"Feature","geometry":{"type":"Point","coordinates":[-96.7991679,32.7940177]},"properties":{"CATEGORY":"Tourism","NAME":"Museum:Doll House Museum of the Southwest"}},
{"type":"Feature","geometry":{"type":"Point","coordinates":[-96.7660809,32.7830446]},"properties":{"CATEGORY":"Tourism","NAME":"Museum:The Dallas Firefighters Museum"}},
{"type":"Feature","geometry":{"type":"Point","coordinates":[-96.7651195,32.7827704]},"properties":{"CATEGORY":"Tourism","NAME":"Museum:The Womens Museum"}},
{"type":"Feature","geometry":{"type":"Point","coordinates":[-96.7636604,32.7828353]},"properties":{"CATEGORY":"Tourism","NAME":"Museum:The Age of Steam Railroad Museum"}},
{"type":"Feature","geometry":{"type":"Point","coordinates":[-96.7630558,32.7781847]},"properties":{"CATEGORY":"Tourism","NAME":"Museum:The Science Place"}},
{"type":"Feature","geometry":{"type":"Point","coordinates":[-96.7625002,32.7770736]},"properties":{"CATEGORY":"Tourism","NAME":"Museum:Dallas Museum of Natural History"}},
{"type":"Feature","geometry":{"type":"Point","coordinates":[-96.760278,32.7776291]},"properties":{"CATEGORY":"Tourism","NAME":"Museum:Dallas Aquarium"}},
{"type":"Feature","geometry":{"type":"Point","coordinates":[-96.7305545,32.7792956]},"properties":{"CATEGORY":"Tourism","NAME":"Tower:KGGR-AM (Dallas)"}},
{"type":"Feature","geometry":{"type":"Point","coordinates":[-96.7108313,32.740408]},"properties":{"CATEGORY":"Tourism","NAME":"Tower:KSSA-AM (Cockrell Hill)"}},
{"type":"Feature","geometry":{"type":"Point","coordinates":[-96.7108313,32.740408]},"properties":{"CATEGORY":"Tourism","NAME":"Tower:KSSA-AM (Plano)"}},
{"type":"Feature","geometry":{"type":"Point","coordinates":[-96.6949973,32.7506853]},"properties":{"CATEGORY":"Tourism","NAME":"Tower:KSKY-AM (Balch Springs)"}},
{"type":"Feature","geometry":{"type":"Point","coordinates":[-96.6558278,32.6617994]},"properties":{"CATEGORY":"Tourism","NAME":"Tower:KDBN-AM (Dallas)"}}
]}